{
   "results" : [
      {
         "address_components" : [
            {
               "long_name" : "Via Volontari Italiani del Sangue",
               "short_name" : "Via Volontari Italiani del Sangue",
               "types" : [ "route" ]
            },
            {
               "long_name" : "Palermo",
               "short_name" : "Palermo",
               "types" : [ "locality", "political" ]
            },
            {
               "long_name" : "Palermo",
               "short_name" : "PA",
               "types" : [ "administrative_area_level_2", "political" ]
            },
            {
               "long_name" : "Sicilia",
               "short_name" : "Sicilia",
               "types" : [ "administrative_area_level_1", "political" ]
            },
            {
               "long_name" : "Italy",
               "short_name" : "IT",
               "types" : [ "country", "political" ]
            }
         ],
         "formatted_address" : "Via Volontari Italiani del Sangue, Palermo, Italy",
         "geometry" : {
            "bounds" : {
               "northeast" : {
                  "lat" : 38.1024189,
                  "lng" : 13.3549471
               },
               "southwest" : {
                  "lat" : 38.1020692,
                  "lng" : 13.3528719
               }
            },
            "location" : {
               "lat" : 38.1022801,
               "lng" : 13.3539238
            },
            "location_type" : "GEOMETRIC_CENTER",
            "viewport" : {
               "northeast" : {
                  "lat" : 38.1035930302915,
                  "lng" : 13.3552584802915
               },
               "southwest" : {
                  "lat" : 38.1008950697085,
                  "lng" : 13.3525605197085
               }
            }
         },
         "partial_match" : true,
         "types" : [ "route" ]
      }
   ],
   "status" : "OK"
}
