{
   "results" : [
      {
         "address_components" : [
            {
               "long_name" : "Via Pantelleria",
               "short_name" : "Via Pantelleria",
               "types" : [ "route" ]
            },
            {
               "long_name" : "Palermo",
               "short_name" : "Palermo",
               "types" : [ "locality", "political" ]
            },
            {
               "long_name" : "Palermo",
               "short_name" : "PA",
               "types" : [ "administrative_area_level_2", "political" ]
            },
            {
               "long_name" : "Sicilia",
               "short_name" : "Sicilia",
               "types" : [ "administrative_area_level_1", "political" ]
            },
            {
               "long_name" : "Italy",
               "short_name" : "IT",
               "types" : [ "country", "political" ]
            },
            {
               "long_name" : "90133",
               "short_name" : "90133",
               "types" : [ "postal_code" ]
            }
         ],
         "formatted_address" : "Via Pantelleria, 90133 Palermo, Italy",
         "geometry" : {
            "bounds" : {
               "northeast" : {
                  "lat" : 38.1202466,
                  "lng" : 13.3652511
               },
               "southwest" : {
                  "lat" : 38.1199537,
                  "lng" : 13.3644481
               }
            },
            "location" : {
               "lat" : 38.1200758,
               "lng" : 13.3648923
            },
            "location_type" : "GEOMETRIC_CENTER",
            "viewport" : {
               "northeast" : {
                  "lat" : 38.1214491302915,
                  "lng" : 13.3661985802915
               },
               "southwest" : {
                  "lat" : 38.1187511697085,
                  "lng" : 13.3635006197085
               }
            }
         },
         "partial_match" : true,
         "types" : [ "route" ]
      }
   ],
   "status" : "OK"
}
