{
   "results" : [
      {
         "address_components" : [
            {
               "long_name" : "Viale Campania",
               "short_name" : "Viale Campania",
               "types" : [ "route" ]
            },
            {
               "long_name" : "Palermo",
               "short_name" : "Palermo",
               "types" : [ "locality", "political" ]
            },
            {
               "long_name" : "Palermo",
               "short_name" : "PA",
               "types" : [ "administrative_area_level_2", "political" ]
            },
            {
               "long_name" : "Sicilia",
               "short_name" : "Sicilia",
               "types" : [ "administrative_area_level_1", "political" ]
            },
            {
               "long_name" : "Italy",
               "short_name" : "IT",
               "types" : [ "country", "political" ]
            },
            {
               "long_name" : "90144",
               "short_name" : "90144",
               "types" : [ "postal_code" ]
            }
         ],
         "formatted_address" : "Viale Campania, 90144 Palermo, Italy",
         "geometry" : {
            "bounds" : {
               "northeast" : {
                  "lat" : 38.1461551,
                  "lng" : 13.340102
               },
               "southwest" : {
                  "lat" : 38.1437655,
                  "lng" : 13.3378657
               }
            },
            "location" : {
               "lat" : 38.1450467,
               "lng" : 13.3392926
            },
            "location_type" : "GEOMETRIC_CENTER",
            "viewport" : {
               "northeast" : {
                  "lat" : 38.1463092802915,
                  "lng" : 13.3403328302915
               },
               "southwest" : {
                  "lat" : 38.1436113197085,
                  "lng" : 13.3376348697085
               }
            }
         },
         "partial_match" : true,
         "types" : [ "route" ]
      }
   ],
   "status" : "OK"
}
