{
   "results" : [
      {
         "address_components" : [
            {
               "long_name" : "Piazza Giulio Cesare",
               "short_name" : "Piazza Giulio Cesare",
               "types" : [ "route" ]
            },
            {
               "long_name" : "Palermo",
               "short_name" : "Palermo",
               "types" : [ "locality", "political" ]
            },
            {
               "long_name" : "Palermo",
               "short_name" : "PA",
               "types" : [ "administrative_area_level_2", "political" ]
            },
            {
               "long_name" : "Sicilia",
               "short_name" : "Sicilia",
               "types" : [ "administrative_area_level_1", "political" ]
            },
            {
               "long_name" : "Italy",
               "short_name" : "IT",
               "types" : [ "country", "political" ]
            },
            {
               "long_name" : "90127",
               "short_name" : "90127",
               "types" : [ "postal_code" ]
            }
         ],
         "formatted_address" : "Piazza Giulio Cesare, 90127 Palermo, Italy",
         "geometry" : {
            "bounds" : {
               "northeast" : {
                  "lat" : 38.1111268,
                  "lng" : 13.3673933
               },
               "southwest" : {
                  "lat" : 38.1088557,
                  "lng" : 13.3657996
               }
            },
            "location" : {
               "lat" : 38.109631,
               "lng" : 13.3663179
            },
            "location_type" : "GEOMETRIC_CENTER",
            "viewport" : {
               "northeast" : {
                  "lat" : 38.1113402302915,
                  "lng" : 13.3679454302915
               },
               "southwest" : {
                  "lat" : 38.1086422697085,
                  "lng" : 13.3652474697085
               }
            }
         },
         "partial_match" : true,
         "types" : [ "route" ]
      }
   ],
   "status" : "OK"
}
