{
   "results" : [
      {
         "address_components" : [
            {
               "long_name" : "Viale Emilia",
               "short_name" : "Viale Emilia",
               "types" : [ "route" ]
            },
            {
               "long_name" : "Palermo",
               "short_name" : "Palermo",
               "types" : [ "locality", "political" ]
            },
            {
               "long_name" : "Palermo",
               "short_name" : "PA",
               "types" : [ "administrative_area_level_2", "political" ]
            },
            {
               "long_name" : "Sicilia",
               "short_name" : "Sicilia",
               "types" : [ "administrative_area_level_1", "political" ]
            },
            {
               "long_name" : "Italy",
               "short_name" : "IT",
               "types" : [ "country", "political" ]
            }
         ],
         "formatted_address" : "Viale Emilia, Palermo, Italy",
         "geometry" : {
            "bounds" : {
               "northeast" : {
                  "lat" : 38.1480088,
                  "lng" : 13.3407939
               },
               "southwest" : {
                  "lat" : 38.1476942,
                  "lng" : 13.3405599
               }
            },
            "location" : {
               "lat" : 38.1478124,
               "lng" : 13.3405915
            },
            "location_type" : "GEOMETRIC_CENTER",
            "viewport" : {
               "northeast" : {
                  "lat" : 38.1492004802915,
                  "lng" : 13.3420258802915
               },
               "southwest" : {
                  "lat" : 38.1465025197085,
                  "lng" : 13.3393279197085
               }
            }
         },
         "partial_match" : true,
         "types" : [ "route" ]
      }
   ],
   "status" : "OK"
}
