{
   "results" : [
      {
         "address_components" : [
            {
               "long_name" : "Via Praga",
               "short_name" : "Via Praga",
               "types" : [ "route" ]
            },
            {
               "long_name" : "Carini",
               "short_name" : "Carini",
               "types" : [ "locality", "political" ]
            },
            {
               "long_name" : "Carini",
               "short_name" : "Carini",
               "types" : [ "administrative_area_level_3", "political" ]
            },
            {
               "long_name" : "Palermo",
               "short_name" : "PA",
               "types" : [ "administrative_area_level_2", "political" ]
            },
            {
               "long_name" : "Sicilia",
               "short_name" : "Sicilia",
               "types" : [ "administrative_area_level_1", "political" ]
            },
            {
               "long_name" : "Italy",
               "short_name" : "IT",
               "types" : [ "country", "political" ]
            },
            {
               "long_name" : "90044",
               "short_name" : "90044",
               "types" : [ "postal_code" ]
            }
         ],
         "formatted_address" : "Via Praga, 90044 Carini Palermo, Italy",
         "geometry" : {
            "bounds" : {
               "northeast" : {
                  "lat" : 38.1605452,
                  "lng" : 13.1621515
               },
               "southwest" : {
                  "lat" : 38.1590498,
                  "lng" : 13.1614125
               }
            },
            "location" : {
               "lat" : 38.1598851,
               "lng" : 13.1617711
            },
            "location_type" : "GEOMETRIC_CENTER",
            "viewport" : {
               "northeast" : {
                  "lat" : 38.1611464802915,
                  "lng" : 13.1631309802915
               },
               "southwest" : {
                  "lat" : 38.1584485197085,
                  "lng" : 13.1604330197085
               }
            }
         },
         "partial_match" : true,
         "types" : [ "route" ]
      },
      {
         "address_components" : [
            {
               "long_name" : "48",
               "short_name" : "48",
               "types" : [ "street_number" ]
            },
            {
               "long_name" : "Via Praga",
               "short_name" : "Via Praga",
               "types" : [ "route" ]
            },
            {
               "long_name" : "Santa Caterina Villarmosa",
               "short_name" : "Santa Caterina Villarmosa",
               "types" : [ "locality", "political" ]
            },
            {
               "long_name" : "Santa Caterina Villarmosa",
               "short_name" : "Santa Caterina Villarmosa",
               "types" : [ "administrative_area_level_3", "political" ]
            },
            {
               "long_name" : "Caltanissetta",
               "short_name" : "CL",
               "types" : [ "administrative_area_level_2", "political" ]
            },
            {
               "long_name" : "Sicilia",
               "short_name" : "Sicilia",
               "types" : [ "administrative_area_level_1", "political" ]
            },
            {
               "long_name" : "Italy",
               "short_name" : "IT",
               "types" : [ "country", "political" ]
            },
            {
               "long_name" : "93018",
               "short_name" : "93018",
               "types" : [ "postal_code" ]
            }
         ],
         "formatted_address" : "Via Praga, 48, 93018 Santa Caterina Villarmosa Caltanissetta, Italy",
         "geometry" : {
            "bounds" : {
               "northeast" : {
                  "lat" : 37.5906087,
                  "lng" : 14.0358923
               },
               "southwest" : {
                  "lat" : 37.5905942,
                  "lng" : 14.0358897
               }
            },
            "location" : {
               "lat" : 37.5906087,
               "lng" : 14.0358897
            },
            "location_type" : "RANGE_INTERPOLATED",
            "viewport" : {
               "northeast" : {
                  "lat" : 37.5919504302915,
                  "lng" : 14.0372399802915
               },
               "southwest" : {
                  "lat" : 37.58925246970851,
                  "lng" : 14.0345420197085
               }
            }
         },
         "partial_match" : true,
         "types" : [ "street_address" ]
      },
      {
         "address_components" : [
            {
               "long_name" : "48",
               "short_name" : "48",
               "types" : [ "street_number" ]
            },
            {
               "long_name" : "Via Primavera di Praga",
               "short_name" : "Via Primavera di Praga",
               "types" : [ "route" ]
            },
            {
               "long_name" : "Borgetto",
               "short_name" : "Borgetto",
               "types" : [ "locality", "political" ]
            },
            {
               "long_name" : "Borgetto",
               "short_name" : "Borgetto",
               "types" : [ "administrative_area_level_3", "political" ]
            },
            {
               "long_name" : "Palermo",
               "short_name" : "PA",
               "types" : [ "administrative_area_level_2", "political" ]
            },
            {
               "long_name" : "Sicilia",
               "short_name" : "Sicilia",
               "types" : [ "administrative_area_level_1", "political" ]
            },
            {
               "long_name" : "Italy",
               "short_name" : "IT",
               "types" : [ "country", "political" ]
            },
            {
               "long_name" : "90042",
               "short_name" : "90042",
               "types" : [ "postal_code" ]
            }
         ],
         "formatted_address" : "Via Primavera di Praga, 48, 90042 Borgetto Palermo, Italy",
         "geometry" : {
            "bounds" : {
               "northeast" : {
                  "lat" : 38.0451748,
                  "lng" : 13.1415655
               },
               "southwest" : {
                  "lat" : 38.0451637,
                  "lng" : 13.1415536
               }
            },
            "location" : {
               "lat" : 38.0451748,
               "lng" : 13.1415655
            },
            "location_type" : "RANGE_INTERPOLATED",
            "viewport" : {
               "northeast" : {
                  "lat" : 38.0465182302915,
                  "lng" : 13.1429085302915
               },
               "southwest" : {
                  "lat" : 38.0438202697085,
                  "lng" : 13.1402105697085
               }
            }
         },
         "partial_match" : true,
         "types" : [ "street_address" ]
      },
      {
         "address_components" : [
            {
               "long_name" : "Viale Praga",
               "short_name" : "Viale Praga",
               "types" : [ "route" ]
            },
            {
               "long_name" : "Palermo",
               "short_name" : "Palermo",
               "types" : [ "locality", "political" ]
            },
            {
               "long_name" : "Palermo",
               "short_name" : "PA",
               "types" : [ "administrative_area_level_2", "political" ]
            },
            {
               "long_name" : "Sicilia",
               "short_name" : "Sicilia",
               "types" : [ "administrative_area_level_1", "political" ]
            },
            {
               "long_name" : "Italy",
               "short_name" : "IT",
               "types" : [ "country", "political" ]
            },
            {
               "long_name" : "90146",
               "short_name" : "90146",
               "types" : [ "postal_code" ]
            }
         ],
         "formatted_address" : "Viale Praga, 90146 Palermo, Italy",
         "geometry" : {
            "bounds" : {
               "northeast" : {
                  "lat" : 38.1529084,
                  "lng" : 13.3333399
               },
               "southwest" : {
                  "lat" : 38.15173430000001,
                  "lng" : 13.3312472
               }
            },
            "location" : {
               "lat" : 38.1523852,
               "lng" : 13.3323727
            },
            "location_type" : "GEOMETRIC_CENTER",
            "viewport" : {
               "northeast" : {
                  "lat" : 38.1536703302915,
                  "lng" : 13.3336425302915
               },
               "southwest" : {
                  "lat" : 38.15097236970851,
                  "lng" : 13.3309445697085
               }
            }
         },
         "partial_match" : true,
         "types" : [ "route" ]
      }
   ],
   "status" : "OK"
}
